City,Country,Lat,Lng,Max Temp,Humidity,Cloudiness,Wind Speed,Date
great bend,US,38.3645,-98.7648,100.45,34,43,4.0,1627599640
kruisfontein,ZA,-34.0033,24.7314,48.88,85,1,6.58,1627599641
vaini,TO,-21.2,-175.2,72.66,64,46,13.8,1627599641
ketchikan,US,55.3422,-131.6461,69.4,72,76,2.17,1627599641
butaritari,KI,3.0707,172.7902,83.95,70,15,12.06,1627599642
enumclaw,US,47.2043,-121.9915,92.84,41,1,1.99,1627599643
rikitea,PF,-23.1203,-134.9692,71.74,76,34,6.85,1627599643
puerto ayora,EC,-0.7393,-90.3518,72.81,81,44,9.19,1627599643
hilo,US,19.7297,-155.09,80.62,81,100,5.01,1627599195
san luis,AR,-33.295,-66.3356,45.95,34,0,6.44,1627599485
hualmay,PE,-11.0964,-77.6139,64.6,82,46,9.04,1627599644
atuona,PF,-9.8,-139.0333,77.07,80,31,14.16,1627599644
port alfred,ZA,-33.5906,26.891,56.32,85,1,10.56,1627599644
bluff,NZ,-46.6,168.3333,45.81,73,94,4.7,1627599645
dikson,RU,73.5069,80.5464,44.06,80,100,14.12,1627599645
rudnichnyy,RU,59.617,52.4703,57.22,99,100,5.12,1627599645
college,US,64.8569,-147.8028,68.0,66,94,1.01,1627599646
mount gambier,AU,-37.8333,140.7667,50.18,58,92,15.93,1627599647
aklavik,CA,68.2191,-135.0107,68.5,52,100,9.93,1627599647
punta arenas,CL,-53.15,-70.9167,39.31,81,0,18.41,1627599391
sawakin,SD,19.1059,37.3321,90.59,53,12,3.62,1627599647
yellowknife,CA,62.456,-114.3525,70.32,49,40,12.66,1627599592
alofi,NU,-19.0595,-169.9187,75.4,74,44,19.57,1627599648
ayan,RU,56.45,138.1667,53.83,92,100,28.34,1627599648
east london,ZA,-33.0153,27.9116,58.66,70,3,8.23,1627599631
lorengau,PG,-2.0226,147.2712,83.62,74,20,3.76,1627599649
kaseda,JP,31.4167,130.3167,77.85,75,79,5.39,1627599649
cape town,ZA,-33.9258,18.4232,53.11,90,20,1.01,1627599438
mataura,NZ,-46.1927,168.8643,45.48,78,86,4.59,1627599650
luga,RU,58.7372,29.8453,60.93,85,26,5.99,1627599650
ushuaia,AR,-54.8,-68.3,36.84,78,20,9.71,1627599650
putnok,HU,48.3,20.4333,66.79,76,0,1.5,1627599651
saldanha,ZA,-33.0117,17.9442,52.57,86,0,5.35,1627599651
arraial do cabo,BR,-22.9661,-42.0278,69.76,49,75,14.97,1627599596
bismarck,US,46.8083,-100.7837,78.64,45,75,10.36,1627598982
torbay,CA,47.6666,-52.7314,64.67,65,2,5.99,1627599651
kapaa,US,22.0752,-159.319,84.18,69,61,3.0,1627599652
avarua,CK,-21.2078,-159.775,77.05,65,75,5.75,1627599490
carnarvon,AU,-24.8667,113.6333,67.03,76,78,18.23,1627599652
nikolskoye,RU,59.7035,30.7861,64.29,90,14,4.63,1627599653
chuy,UY,-33.6971,-53.4616,43.16,78,68,6.15,1627599653
busselton,AU,-33.65,115.3333,49.08,73,100,26.62,1627599653
coihaique,CL,-45.5752,-72.0662,40.48,97,53,8.86,1627599654
victoria,HK,22.2855,114.1577,84.16,91,99,4.0,1627599396
plast,RU,54.3691,60.8136,55.44,58,97,8.41,1627599654
palmer,US,42.1584,-72.3287,70.97,80,100,3.0,1627599367
manakara,MG,-22.1333,48.0167,67.77,84,100,6.51,1627599655
trelew,AR,-43.249,-65.3051,56.19,40,31,14.74,1627599655
erzin,TR,36.9559,36.2,79.0,59,0,1.79,1627599656
sao felix do xingu,BR,-6.6447,-51.995,80.58,38,17,1.95,1627599656
joshimath,IN,30.5667,79.5667,69.78,88,84,1.41,1627599656
ponta delgada,PT,37.7333,-25.6667,72.32,83,75,3.44,1627599656
gorele,TR,41.0308,39.0031,76.44,78,5,7.9,1627599657
saskylakh,RU,71.9167,114.0833,76.37,45,9,4.45,1627599657
bintulu,MY,3.1667,113.0333,77.59,93,100,4.7,1627599658
bethel,US,41.3712,-73.414,72.72,91,100,1.01,1627599658
qaqortoq,GL,60.7167,-46.0333,52.3,83,80,1.97,1627599658
naze,JP,28.3667,129.4833,78.91,81,2,3.06,1627599659
santa isabel,BR,-23.3156,-46.2214,47.66,88,15,2.64,1627599659
ribeira grande,PT,38.5167,-28.7,70.77,87,5,10.31,1627599659
yerofey pavlovich,RU,53.9667,121.9667,61.36,83,13,4.45,1627599660
port hardy,CA,50.6996,-127.4199,67.71,78,57,11.86,1627599660
bosaso,SO,11.2842,49.1816,89.73,42,62,26.04,1627599660
pisco,PE,-13.7,-76.2167,62.02,86,8,2.86,1627599661
eastbourne,GB,50.7687,0.2845,62.49,84,56,7.92,1627599636
szczecinek,PL,53.7079,16.6994,62.35,66,19,9.31,1627599661
lagos,NG,6.5833,3.75,75.78,85,32,3.13,1627599608
abu samrah,SY,35.3029,37.1841,77.47,47,0,9.33,1627599663
souillac,MU,-20.5167,57.5167,67.35,80,79,20.24,1627599663
hermanus,ZA,-34.4187,19.2345,51.91,83,11,6.82,1627599664
flinders,AU,-34.5833,150.8552,57.38,56,0,4.18,1627599664
new norfolk,AU,-42.7826,147.0587,50.92,75,100,3.0,1627599664
sayat,TM,38.7839,63.8803,79.54,25,45,12.77,1627599665
pointe michel,DM,15.25,-61.3833,80.76,75,48,11.97,1627599665
burnie,AU,-41.0667,145.9167,51.6,80,43,14.81,1627599665
oussouye,SN,12.485,-16.5469,78.1,82,100,8.01,1627599666
bilibino,RU,68.0546,166.4372,40.15,58,96,6.26,1627599666
caravelas,BR,-17.7125,-39.2481,70.68,76,100,15.82,1627599667
isangel,VU,-19.55,169.2667,77.45,71,24,2.26,1627599667
itororo,BR,-15.1169,-40.0703,70.86,81,9,6.46,1627599667
sheopur,IN,25.6667,76.7,78.06,91,100,8.5,1627599668
hobart,AU,-42.8794,147.3294,51.26,74,75,3.0,1627599607
tabuk,PH,17.4189,121.4443,77.32,86,100,1.7,1627599668
novokizhinginsk,RU,51.6115,109.5917,60.55,83,100,3.94,1627599668
kahului,US,20.8947,-156.47,82.98,85,41,10.0,1627599669
grindavik,IS,63.8424,-22.4338,58.55,88,0,5.75,1627599669
qaanaaq,GL,77.484,-69.3632,38.68,92,99,7.18,1627599669
pagegiai,LT,55.1381,21.9089,59.81,93,63,6.82,1627599670
dingle,PH,10.9995,122.6711,79.9,86,96,8.57,1627599670
yulara,AU,-25.2406,130.9889,59.58,38,0,5.75,1627599671
teknaf,BD,20.8624,92.3058,79.93,91,100,11.1,1627599671
bredasdorp,ZA,-34.5322,20.0403,49.05,88,3,6.49,1627599671
khatanga,RU,71.9667,102.5,72.19,61,1,13.91,1627599672
nanpiao,CN,41.0982,120.7479,70.47,97,100,15.61,1627599672
itupiranga,BR,-5.1347,-49.3267,79.79,48,1,2.73,1627599672
fremont,US,37.5483,-121.9886,103.19,48,1,3.0,1627599605
ilhabela,BR,-23.7781,-45.3581,52.61,68,49,6.76,1627599643
virtsu,EE,58.5716,23.5115,67.08,75,23,23.55,1627599673
esperance,AU,-33.8667,121.9,54.07,72,94,23.47,1627599673
tasiilaq,GL,65.6145,-37.6368,51.96,71,70,2.57,1627599673
dali,CN,25.7,100.1833,63.18,98,100,1.54,1627599674
sinnar,SD,13.5691,33.5672,80.58,73,85,18.52,1627599674
whitehorse,CA,60.7161,-135.0538,75.09,40,20,8.99,1627599382
albany,US,42.6001,-73.9662,70.66,98,100,6.13,1627599674
komsomolskiy,UZ,40.4272,71.7189,79.7,23,69,6.85,1627599675
pangkalanbuun,ID,-2.6833,111.6167,73.92,96,54,2.24,1627599675
vitim,RU,59.4511,112.5578,64.45,45,4,7.38,1627599675
saint thomas mount,IN,12.9964,80.2031,85.98,58,40,9.22,1627599676
castro,BR,-24.7911,-50.0119,35.91,59,4,2.04,1627599676
saint-philippe,RE,-21.3585,55.7679,67.59,85,89,15.97,1627599676
sioux lookout,CA,50.1001,-91.917,71.08,25,2,8.79,1627599677
kaitangata,NZ,-46.2817,169.8464,51.93,77,77,7.11,1627599677
penzance,GB,50.1186,-5.5371,58.77,89,90,38.16,1627599677
oriximina,BR,-1.7656,-55.8661,73.33,91,91,4.14,1627599678
chinsali,ZM,-10.5414,32.0816,54.39,56,0,6.64,1627599678
lanigan,CA,51.8501,-105.0344,89.69,20,100,14.58,1627599678
sayville,US,40.7359,-73.0821,74.97,89,100,5.99,1627599679
hambantota,LK,6.1241,81.1185,79.75,82,41,18.72,1627599679
moa,CU,20.6569,-74.9403,81.0,82,34,12.48,1627599679
tecoanapa,MX,16.5167,-98.75,85.24,71,99,9.46,1627599680
mount isa,AU,-20.7333,139.5,69.57,40,0,0.0,1627599680
tukrah,LY,32.5341,20.5791,80.22,79,0,11.54,1627599680
makakilo city,US,21.3469,-158.0858,85.6,59,75,17.27,1627599681
puerto escondido,MX,15.85,-97.0667,83.82,74,94,5.17,1627599681
georgetown,MY,5.4112,100.3354,77.9,93,20,5.01,1627599455
nucet,RO,44.7833,25.55,79.41,61,18,5.1,1627599681
marienburg,PL,54.0359,19.0266,62.26,74,53,8.7,1627599682
necochea,AR,-38.5473,-58.7368,47.03,62,0,7.31,1627599682
yaan,NG,7.3833,8.5667,71.58,96,21,4.74,1627599682
marsaxlokk,MT,35.8419,14.5431,83.08,34,0,3.44,1627599683
pavilosta,LV,56.8879,21.1859,67.91,71,36,23.02,1627599683
barrow,US,71.2906,-156.7887,53.62,87,90,8.05,1627599608
vila velha,BR,-20.3297,-40.2925,67.95,64,75,16.11,1627599626
havre,FR,49.5833,0.3333,64.17,68,0,5.75,1627599684
talakan,RU,50.3167,130.3667,72.84,86,22,4.34,1627599684
henties bay,NA,-22.116,14.2845,56.89,77,0,3.96,1627599684
maniitsoq,GL,65.4167,-52.9,47.53,73,54,10.96,1627599684
traverse city,US,44.7631,-85.6206,75.94,68,7,17.58,1627599619
san cristobal,VE,7.7669,-72.225,69.3,87,56,5.03,1627599685
frontino,CO,6.7801,-76.1288,66.15,98,93,2.68,1627599685
tongren,CN,27.7172,109.1853,76.62,92,0,1.57,1627599686
mountain home,US,43.133,-115.6912,99.88,6,1,13.8,1627599418
marsh harbour,BS,26.5412,-77.0636,84.29,66,71,8.75,1627599686
ndende,GA,-2.4008,11.3581,72.54,79,37,4.41,1627599686
jati,PK,24.3539,68.2671,81.79,81,100,20.94,1627599687
am timan,TD,11.0297,20.2827,74.52,91,71,4.9,1627599687
ati,TD,13.2154,18.3353,73.85,83,100,7.23,1627599688
mahebourg,MU,-20.4081,57.7,67.24,79,79,21.21,1627599688
ranong,TH,9.9658,98.6348,78.75,86,100,11.18,1627599688
airai,TL,-8.9266,125.4092,61.54,51,43,2.66,1627599689
luebo,CD,-5.35,21.4167,72.68,35,6,2.24,1627599689
mathathane,BW,-22.2687,28.7495,53.85,32,1,3.83,1627599689
atasu,KZ,48.6814,71.6433,65.46,52,97,8.32,1627599690
port elizabeth,ZA,-33.918,25.5701,51.1,87,6,7.87,1627599690
andenes,NO,69.3143,16.1194,48.18,93,83,23.02,1627599690
vardo,NO,70.3705,31.1107,45.16,86,100,3.38,1627599691
namatanai,PG,-3.6667,152.4333,82.33,76,60,3.89,1627599691
terrace bay,CA,48.7834,-87.1,66.79,44,12,9.91,1627599616
longyearbyen,SJ,78.2186,15.6401,44.44,76,75,8.05,1627599515
faanui,PF,-16.4833,-151.75,78.57,75,69,11.52,1627599692
sao filipe,CV,14.8961,-24.4956,75.88,76,96,5.7,1627599692
viedma,AR,-40.8135,-62.9967,53.85,33,0,11.79,1627599692
salalah,OM,17.0151,54.0924,76.66,95,77,13.4,1627599625
cidreira,BR,-30.1811,-50.2056,46.58,67,6,8.95,1627599693
milkovo,RU,54.7167,158.6167,70.45,72,91,0.92,1627599693
novoagansk,RU,61.9449,76.6625,46.76,92,50,8.88,1627599694
merauke,ID,-8.4667,140.3333,77.58,89,63,10.49,1627599694
turayf,SA,31.6725,38.6637,78.3,37,0,11.77,1627599694
strathmore,CA,51.0501,-113.3852,91.0,39,3,13.8,1627599503
campbell river,CA,50.0163,-125.2446,86.38,36,20,3.44,1627599401
clarksdale,US,34.2001,-90.5709,93.9,66,1,0.0,1627599695
lompoc,US,34.6391,-120.4579,92.12,75,90,10.0,1627599695
ballina,AU,-28.8667,153.5667,56.79,54,0,7.63,1627599695
atambua,ID,-9.1061,124.8925,71.85,77,37,3.71,1627599696
ust-ilimsk,RU,58.0006,102.6619,61.99,88,89,3.09,1627599696
hithadhoo,MV,-0.6,73.0833,82.11,72,100,4.59,1627599696
ashington,GB,50.9331,-0.3909,62.82,52,53,6.76,1627599697
killybegs,IE,54.6333,-8.45,56.44,89,99,4.85,1627599697
olafsvik,IS,64.8945,-23.7142,53.37,87,92,6.93,1627599697
mabaruma,GY,8.2,-59.7833,74.64,89,61,2.82,1627599698
kodiak,US,57.79,-152.4072,56.39,75,93,6.11,1627599698
beringovskiy,RU,63.05,179.3167,42.4,88,88,13.18,1627599698
stephenville,US,32.2207,-98.2023,98.69,52,40,4.61,1627599609
kavieng,PG,-2.5744,150.7967,83.64,73,44,7.25,1627599699
mildura,AU,-34.2,142.15,48.07,64,27,21.94,1627599610
gatton,AU,-27.55,152.2833,62.26,50,0,3.33,1627599699
cabedelo,BR,-6.9811,-34.8339,76.84,80,27,13.42,1627599650
vila franca do campo,PT,37.7167,-25.4333,72.01,87,41,5.7,1627599700
mahajanga,MG,-15.7167,46.3167,73.42,60,20,6.91,1627599700
korla,CN,41.7597,86.1469,87.6,23,30,18.16,1627599701
seymchan,RU,62.8833,152.4333,41.52,82,100,9.82,1627599701
deputatskiy,RU,69.3,139.9,50.18,51,82,3.94,1627599701
chlorakas,CY,34.8042,32.4083,79.83,50,0,4.61,1627599701
ponta do sol,PT,32.6667,-17.1,72.23,76,15,6.69,1627599702
kogon,UZ,39.7228,64.5517,78.44,31,0,11.5,1627599702
fortuna,US,40.5982,-124.1573,73.85,71,20,1.99,1627599702
pevek,RU,69.7008,170.3133,32.07,98,100,24.43,1627599703
tuktoyaktuk,CA,69.4541,-133.0374,51.51,89,96,11.56,1627599703
geraldton,AU,-28.7667,114.6,63.01,77,75,20.71,1627599703
nishihara,JP,26.1842,127.7558,82.06,83,20,6.91,1627599704
ancud,CL,-41.8697,-73.8203,47.32,89,88,8.86,1627599704
meulaboh,ID,4.1363,96.1285,75.25,86,100,4.94,1627599704
yura,PE,-16.2522,-71.6797,55.49,40,0,2.82,1627599705
hobyo,SO,5.3505,48.5268,76.37,79,98,24.09,1627599705
charters towers,AU,-20.1,146.2667,71.78,39,30,4.76,1627599705
upernavik,GL,72.7868,-56.1549,44.92,88,100,4.18,1627599706
nemuro,JP,43.3236,145.575,67.08,98,92,8.99,1627599706
thompson,CA,55.7435,-97.8558,77.14,34,58,4.38,1627599706
cabo san lucas,MX,22.8909,-109.9124,95.81,68,21,5.01,1627599682
lagoa,PT,39.05,-27.9833,70.12,89,5,9.66,1627599707
nandura,IN,20.8333,76.45,76.32,81,100,9.37,1627599707
chokurdakh,RU,70.6333,147.9167,45.7,52,95,6.67,1627599707
sheregesh,RU,52.9209,87.9869,51.12,82,88,2.26,1627599708
trinidad,BO,-14.8333,-64.9,61.47,29,23,4.88,1627599708
ovsyanka,RU,55.9575,92.5519,47.37,71,92,2.51,1627599708
port blair,IN,11.6667,92.75,81.99,84,100,17.09,1627599709
chingirlau,KZ,51.095,54.0814,74.71,25,92,15.79,1627599709
bayshore gardens,US,27.4253,-82.5904,85.26,68,1,6.91,1627599709
monrovia,LR,6.3005,-10.7969,73.17,79,30,7.61,1627599710
nalut,LY,30.3333,10.85,83.91,20,0,11.36,1627599710
bojnurd,IR,37.4747,57.329,65.55,84,64,5.73,1627599710
bognor regis,GB,50.7821,-0.6798,62.92,86,60,10.76,1627599427
baie-saint-paul,CA,47.4411,-70.4986,58.86,93,100,4.65,1627599711
rockland,US,41.1668,-74.0496,73.69,93,100,3.0,1627599711
road town,VG,18.4167,-64.6167,82.44,83,40,9.22,1627599608
barcelona,ES,41.3888,2.159,77.99,85,20,1.01,1627599655
ilulissat,GL,69.2167,-51.1,50.02,76,57,3.44,1627599712
katsuura,JP,35.1333,140.3,84.31,83,43,6.69,1627599712
veraval,IN,20.9,70.3667,81.7,85,100,22.88,1627599712
muros,ES,42.7762,-9.0603,65.84,79,9,4.65,1627599713
high level,CA,58.5169,-117.136,81.28,23,17,9.95,1627599713
nantucket,US,41.2835,-70.0995,71.1,78,100,18.79,1627599660
jizan,SA,17.3333,42.6667,90.52,55,57,1.54,1627599618
ikwiriri,TZ,-7.9562,38.9716,67.48,91,30,3.38,1627599713
tiarei,PF,-17.5333,-149.3333,82.42,77,64,0.34,1627599714
weihe,CN,32.9952,105.3247,65.3,78,5,5.19,1627599714
pedregulho,BR,-20.2569,-47.4767,46.78,27,12,4.68,1627599715
zhigansk,RU,66.7697,123.3711,63.32,45,7,5.97,1627599715
mar del plata,AR,-38.0023,-57.5575,53.1,64,0,1.99,1627599606
pringsewu,ID,-5.3582,104.9744,71.11,96,10,2.84,1627599715
ust-tsilma,RU,65.441,52.1498,47.05,88,100,3.11,1627599716
karasburg,NA,-28.0167,18.75,50.18,32,0,7.96,1627599716
sinnamary,GF,5.3833,-52.95,78.67,82,0,5.99,1627599673
tromso,NO,69.6496,18.957,49.37,81,40,12.66,1627599717
ahipara,NZ,-35.1667,173.1667,60.84,79,100,14.27,1627599717
jamestown,US,42.097,-79.2353,76.37,86,17,13.02,1627599416
teguldet,RU,57.3064,88.1667,53.74,79,99,3.44,1627599717
dhanera,IN,24.5167,72.0167,80.2,83,100,14.12,1627599718
fare,PF,-16.7,-151.0167,77.95,75,47,7.56,1627599718
baiyin,CN,36.5583,104.2081,72.88,28,0,3.09,1627599718
novo aripuana,BR,-5.1206,-60.3797,80.24,48,9,3.27,1627599719
puerto leguizamo,CO,-0.1934,-74.7819,73.53,96,76,3.18,1627599719
hasaki,JP,35.7333,140.8333,82.69,83,42,7.61,1627599719
sibolga,ID,1.7427,98.7792,76.14,82,100,3.0,1627599720
mezen,RU,65.8522,44.24,45.3,86,58,5.39,1627599720
moshenskoye,RU,58.5102,34.5911,59.81,98,31,4.76,1627599721
posse,BR,-14.0931,-46.3694,70.63,39,12,3.62,1627599721
pokhara,NP,28.2333,83.9833,72.48,87,92,1.74,1627599684
simao,CN,22.7886,100.9748,66.69,100,100,1.07,1627599721
quatre cocos,MU,-20.2078,57.7625,67.08,80,64,19.77,1627599722
drakino,RU,51.139,39.4021,71.96,70,79,5.48,1627599722
cherskiy,RU,68.75,161.3,36.52,68,99,20.18,1627599723
gluckstadt,DE,53.7833,9.4167,62.53,72,8,13.62,1627599723
chirongui,YT,-12.9319,45.1483,76.93,70,8,15.93,1627599723
choma,ZM,-16.8065,26.9531,52.3,53,31,1.48,1627599724
russell,US,32.3502,-85.1999,94.71,35,9,1.36,1627599724
sikasso,ML,10.9167,-7.0,71.85,94,98,4.68,1627599725
schiffdorf,DE,53.5333,8.65,60.94,74,27,15.68,1627599725
usinsk,RU,65.9939,57.5281,42.17,89,32,7.52,1627599725
ligayan,PH,4.6533,119.4706,83.28,79,37,12.1,1627599726
port-gentil,GA,-0.7193,8.7815,76.69,79,21,13.76,1627599726
sakakah,SA,29.9697,40.2064,86.41,28,0,16.26,1627599726
klaksvik,FO,62.2266,-6.589,52.72,96,99,14.61,1627599727
iqaluit,CA,63.7506,-68.5145,44.04,82,69,7.23,1627599727
waterloo,CA,43.4668,-80.5164,78.31,83,4,7.0,1627599687
victoria point,AU,-27.5833,153.3,67.08,59,0,3.0,1627599728
chokwe,MZ,-24.5333,32.9833,60.04,66,0,4.97,1627599728
hovd,MN,48.0056,91.6419,60.49,50,5,0.4,1627599728
novyy urgal,RU,51.0736,132.5642,72.12,78,48,2.82,1627599729
ler,SS,8.3018,30.1418,70.77,96,99,5.12,1627599729
egvekinot,RU,66.3167,-179.1667,34.38,97,100,3.98,1627599729
taksimo,RU,56.3444,114.8794,66.13,70,7,0.87,1627599730
codrington,AU,-38.2667,141.9667,48.97,58,54,22.48,1627599730
petropavlovsk-kamchatskiy,RU,53.0452,158.6483,63.19,100,75,6.71,1627599730
kaabong,UG,3.4836,34.1492,64.83,76,91,0.92,1627599731
lavrentiya,RU,65.5833,-171.0,47.25,81,75,12.46,1627599731
severo-kurilsk,RU,50.6789,156.125,60.37,94,92,4.25,1627599731
goure,NE,13.9835,10.2704,83.01,69,53,3.83,1627599732
poum,NC,-20.2333,164.0167,73.29,64,3,3.27,1627599732
luganville,VU,-15.5333,167.1667,81.03,77,16,2.91,1627599732
manching,DE,48.7166,11.4939,63.12,89,46,0.0,1627599733
moissac,FR,44.1024,1.0945,76.15,83,93,2.44,1627599733
gasa,PS,31.5,34.4667,78.78,72,0,6.51,1627599733
cockburn town,TC,21.4612,-71.1419,82.22,78,0,20.09,1627599734
portland,US,45.5234,-122.6762,99.97,24,0,3.0,1627599643
treinta y tres,UY,-33.2333,-54.3833,41.32,79,11,7.11,1627599734
sao joao da barra,BR,-21.6403,-41.0511,61.74,57,14,24.25,1627599734
vostok,RU,46.4856,135.8833,69.69,96,97,2.37,1627599734
bobo dioulasso,BF,11.1771,-4.2979,70.66,94,64,5.66,1627599735
ronne,DK,55.1009,14.7066,66.11,72,75,21.85,1627599735
nanortalik,GL,60.1432,-45.2371,46.15,84,92,15.84,1627599736
anloga,GH,5.7947,0.8973,77.09,85,58,10.33,1627599736
visby,SE,57.6409,18.296,62.82,67,75,17.27,1627599736
flin flon,CA,54.7682,-101.865,86.16,23,15,11.86,1627599609
coquimbo,CL,-29.9533,-71.3436,54.27,76,1,3.76,1627599736
westport,US,41.1415,-73.3579,74.77,93,100,1.01,1627599673
alpine,US,32.835,-116.7664,97.66,36,92,1.99,1627599615
norsup,VU,-16.0667,167.3833,81.14,72,35,0.65,1627599737
chancay,PE,-11.5714,-77.2672,61.56,85,36,7.11,1627599738
pervomayskiy,RU,53.2485,40.2871,64.13,75,25,4.36,1627599738
micheweni,TZ,-4.9667,39.8333,74.66,76,13,13.24,1627599738
igarka,RU,67.4667,86.5833,54.01,91,100,7.2,1627599738
mumbwa,ZM,-14.9783,27.0619,53.58,52,73,4.36,1627599739
kendari,ID,-3.945,122.4989,75.36,93,96,2.01,1627599739
wanning,CN,18.8003,110.3967,80.58,85,98,7.65,1627599739
kirakira,SB,-10.4544,161.9205,84.09,70,6,6.78,1627599740
samarai,PG,-10.6167,150.6667,80.2,82,48,11.32,1627599740
isabela,PH,6.7085,121.9711,80.4,88,50,3.27,1627599740
qui nhon,VN,13.7667,109.2333,83.73,70,66,15.28,1627599741
guerrero negro,MX,27.9769,-114.0611,77.9,65,8,20.67,1627599702
eyl,SO,7.9803,49.8164,77.99,69,92,23.55,1627599741
lebu,CL,-37.6167,-73.65,49.64,84,1,6.53,1627599741
saint george,US,37.1041,-113.5841,100.99,19,1,6.91,1627599742
cayenne,GF,4.9333,-52.3333,82.09,83,2,1.99,1627599742
khani,GE,41.9563,42.9566,60.37,90,26,4.32,1627599742
zvishavane,ZW,-20.3267,30.0665,53.71,50,29,0.94,1627599743
vanavara,RU,60.34,102.2797,64.63,53,38,6.13,1627599743
batemans bay,AU,-35.7167,150.1833,45.91,46,0,3.67,1627599466
hami,CN,42.8,93.45,87.08,21,0,5.91,1627599743
chernyshevskiy,RU,63.0128,112.4714,61.38,46,9,5.08,1627599744
atherton,GB,53.5237,-2.4935,58.71,91,99,1.43,1627599744
cap malheureux,MU,-19.9842,57.6142,67.46,82,44,5.99,1627599744
owando,CG,-0.4819,15.8999,76.24,48,76,1.12,1627599745
beyneu,KZ,45.3167,55.2,80.13,21,6,7.87,1627599745
biltine,TD,14.5333,20.9167,79.18,71,99,9.84,1627599745
orlik,RU,52.5178,99.825,50.29,90,100,0.4,1627599746
bratsk,RU,56.1325,101.6142,57.69,93,100,8.14,1627599746
port moresby,PG,-9.4431,147.1797,79.25,81,88,0.29,1627599746
roald,NO,62.5833,6.1333,61.9,88,20,16.11,1627599747
balingasay,PH,16.3573,119.8564,82.11,83,99,16.69,1627599747
yanam,IN,16.7333,82.2167,79.48,76,100,8.41,1627599747
lae,PG,-6.7221,146.9847,80.65,76,52,4.43,1627599748
oranjemund,NA,-28.55,16.4333,54.5,71,0,8.43,1627599748
the valley,AI,18.217,-63.0578,82.81,79,100,15.23,1627599748
dreznica,BA,43.5289,17.2819,65.62,46,0,4.41,1627599749
barranca,PE,-10.75,-77.7667,64.83,79,35,8.41,1627599749
trat,TH,12.5,102.5,75.51,96,79,6.15,1627599749
yerbogachen,RU,61.2767,108.0108,62.2,55,3,7.23,1627599749
kasongo,CD,-4.45,26.6667,77.27,38,88,1.41,1627599750
tiksi,RU,71.6872,128.8694,52.79,54,82,3.42,1627599750
yeppoon,AU,-23.1333,150.7333,64.18,56,0,13.04,1627599750
macau,MO,22.2006,113.5461,83.91,89,75,18.41,1627599505
buchanan,LR,5.8808,-10.0467,73.36,81,45,6.49,1627599751
itambe,BR,-15.245,-40.6244,71.55,81,34,10.0,1627599751
karratha,AU,-20.7377,116.8463,66.54,71,14,5.93,1627599751
gweta,BW,-20.1833,25.2333,57.9,41,58,7.45,1627599752
winchester,GB,51.0651,-1.3187,61.72,76,85,5.7,1627599163
acatlan,MX,20.15,-98.45,64.09,72,73,12.06,1627599752
bardiyah,LY,31.7561,25.0865,79.61,73,0,13.09,1627599752
namibe,AO,-15.1961,12.1522,64.36,82,18,0.69,1627599753
sirjan,IR,29.452,55.6814,77.25,17,97,9.51,1627599753
san quintin,MX,30.4833,-115.95,76.23,68,1,15.52,1627599754
inirida,CO,3.8653,-67.9239,79.32,76,83,0.67,1627599616
port macquarie,AU,-31.4333,152.9167,53.89,41,0,4.68,1627599754
salinopolis,BR,-0.6136,-47.3561,78.26,86,10,9.62,1627599458
sedalia,US,38.7045,-93.2283,96.51,56,31,3.0,1627599672
sydney,AU,-33.8679,151.2073,51.06,68,0,3.0,1627599505
namie,JP,37.4833,141.0,82.71,93,99,5.73,1627599755
provideniya,RU,64.3833,-173.3,51.91,76,75,11.18,1627599755
waddan,LY,29.1614,16.139,80.02,42,0,9.06,1627599755
ostrovnoy,RU,68.0531,39.5131,41.5,89,53,5.61,1627599756
eureka,US,40.8021,-124.1637,74.12,72,59,5.99,1627599756
bairiki,KI,1.3292,172.9752,82.8,74,7,11.21,1627599756
aswan,EG,24.0934,32.907,89.28,19,100,8.7,1627599757
mikhaylovka,RU,50.06,43.2379,71.71,65,43,7.47,1627599757
piterka,RU,50.6803,47.4454,72.41,48,72,6.87,1627599757
straumen,NO,63.8709,11.2999,60.8,90,87,4.79,1627599758
luderitz,NA,-26.6481,15.1594,62.6,40,0,7.94,1627599758
nadym,RU,65.5333,72.5167,50.79,96,99,14.76,1627599758
vestmanna,FO,62.1564,-7.1664,50.92,100,90,3.44,1627599759
santarem,BR,-2.4431,-54.7083,77.59,77,65,3.78,1627599759
high prairie,CA,55.4334,-116.4858,80.53,32,49,10.56,1627599705
wanxian,CN,30.8039,108.3897,77.04,91,2,2.13,1627599760
rodrigues alves,BR,-7.738,-72.6509,71.44,53,3,3.78,1627599760
jacareacanga,BR,-6.2222,-57.7528,78.1,44,0,3.49,1627599760
constitucion,CL,-35.3333,-72.4167,51.76,76,0,2.59,1627599760
pilar,BR,-9.5972,-35.9567,69.73,93,27,2.93,1627599514
yar-sale,RU,66.8333,70.8333,47.57,98,97,9.46,1627599761
desbiens,CA,48.4178,-71.9495,59.58,91,100,15.95,1627599761
husavik,IS,66.0449,-17.3389,50.25,94,92,3.04,1627599762
jalingo,NG,8.8833,11.3667,75.45,85,97,3.51,1627599762
bonavista,CA,48.6499,-53.1147,64.11,95,32,5.46,1627599762
yumen,CN,40.2833,97.2,74.91,24,0,11.72,1627599763
kirovo-chepetsk,RU,58.5539,50.0399,58.6,99,100,5.28,1627599763
mae sai,TH,20.4335,99.8762,76.44,99,100,1.7,1627599763
sola,VU,-13.8833,167.55,79.61,78,43,6.67,1627599763
bengkulu,ID,-3.8004,102.2655,74.39,91,35,4.99,1627599764
padre bernardo,BR,-15.35,-48.5,68.22,37,0,6.4,1627599764
fairbanks,US,64.8378,-147.7164,69.1,65,95,1.01,1627599485
derzhavinsk,KZ,51.1,66.3167,55.56,55,1,3.38,1627599765
mehamn,NO,71.0357,27.8492,43.77,85,100,4.59,1627599765
sangre grande,TT,10.5835,-61.1177,82.06,88,63,5.3,1627599765
santa maria,BR,-29.6842,-53.8069,40.28,74,4,1.92,1627599635
inhambane,MZ,-23.865,35.3833,65.35,72,0,4.92,1627599766
puerto narino,CO,-3.7703,-70.3831,73.81,70,45,4.38,1627599766
ukhta,RU,63.5671,53.6835,44.94,83,93,2.28,1627599766
san juan,AR,-31.5375,-68.5364,53.55,27,0,5.35,1627599767
caceres,ES,39.522,-6.3748,69.8,42,0,5.23,1627599767
myrtle beach,US,33.6891,-78.8867,89.87,75,16,1.99,1627599549
abu dhabi,AE,24.4667,54.3667,90.97,79,90,12.62,1627599737
san patricio,US,28.017,-97.5169,93.29,47,67,14.2,1627599767
iskateley,RU,67.6803,53.1512,42.33,88,90,2.71,1627599768
kupang,ID,-10.1667,123.5833,75.88,82,9,7.83,1627599768
mareeba,AU,-17.0,145.4333,74.32,63,39,1.5,1627599768
port lincoln,AU,-34.7333,135.8667,57.27,58,29,20.18,1627599609
svetlogorsk,BY,52.6333,29.7333,63.27,98,24,6.22,1627599769
tres arroyos,AR,-38.3739,-60.2798,46.94,53,0,11.14,1627599769
lalsot,IN,26.5667,76.3333,79.47,86,100,9.1,1627599769
rawson,AR,-43.3002,-65.1023,54.59,50,36,16.67,1627599770
jalu,LY,29.0331,21.5482,81.59,51,0,12.01,1627599770
tignere,CM,7.3667,12.65,64.33,94,99,1.5,1627599770
mponela,MW,-13.5319,33.7401,57.2,69,1,8.99,1627599771
te anau,NZ,-45.4167,167.7167,48.49,84,100,1.32,1627599771
dongsheng,CN,39.8161,109.9776,74.19,35,0,5.12,1627599772
dakar,SN,14.6937,-17.4441,83.28,80,95,6.87,1627599624
leningradskiy,RU,69.3833,178.4167,32.65,98,100,19.84,1627599772
ekhabi,RU,53.5102,142.9671,61.68,99,100,1.81,1627599772
kodinsk,RU,58.6881,99.1844,56.48,94,100,2.55,1627599773
chifeng,CN,42.2683,118.9636,66.18,98,100,8.01,1627599773
abbeville,FR,50.1,1.8333,59.49,85,70,7.63,1627599773
kano,NG,12.0001,8.5167,77.14,76,91,5.57,1627599774
muzhi,RU,65.3667,64.6667,47.95,85,100,12.44,1627599774
port hedland,AU,-20.3167,118.5667,66.25,94,75,6.91,1627599774
huoqiu,CN,32.3394,116.2694,75.61,87,0,2.46,1627599775
berlevag,NO,70.8578,29.0864,44.06,88,100,5.08,1627599775
sunrise manor,US,36.2111,-115.0731,108.01,18,1,3.0,1627599775
mangaluru,IN,12.8667,74.8833,77.11,87,93,8.39,1627599776
mercedes,AR,-34.6515,-59.4307,49.86,53,0,7.09,1627599776
aktau,KZ,43.65,51.2,70.38,33,33,8.43,1627599776
erzincan,TR,39.75,39.5,61.54,80,0,6.02,1627599777
uige,AO,-7.6087,15.0613,64.2,51,0,2.46,1627599777
kudahuvadhoo,MV,2.6708,72.8944,81.52,73,96,5.53,1627599777
aleksandrov gay,RU,50.147,48.5704,78.35,35,68,8.14,1627599777
lieksa,FI,63.3167,30.0167,60.22,97,100,7.05,1627599548
magalia,US,39.8121,-121.5783,101.53,12,7,7.7,1627599778
talnakh,RU,69.4865,88.3972,60.19,77,99,2.62,1627599778
fort nelson,CA,58.8053,-122.7002,80.67,26,15,1.9,1627599779
syracuse,IT,37.0881,15.2792,89.62,45,0,4.72,1627599591
tadine,NC,-21.55,167.8833,73.9,57,4,7.07,1627599780
salina,US,38.8403,-97.6114,102.02,36,1,3.0,1627599780
panama city,PA,8.9936,-79.5197,83.05,89,100,4.34,1627599780
senaki,GE,42.2704,42.0675,68.09,91,1,4.07,1627599781
saint-ambroise,CA,48.5501,-71.3324,57.09,97,100,6.55,1627599781
shingu,JP,33.7333,135.9833,81.59,60,0,1.48,1627599781
pastavy,BY,55.1168,26.8326,61.84,91,32,6.67,1627599782
hofn,IS,64.2539,-15.2082,53.83,88,78,5.7,1627599782
catalao,BR,-18.1658,-47.9464,56.5,21,2,4.7,1627599782
chicama,PE,-7.8447,-79.1469,67.95,78,19,8.1,1627599783
praia da vitoria,PT,38.7333,-27.0667,73.76,76,28,9.8,1627599783
bristol,US,41.8334,-71.1662,71.62,81,100,3.0,1627599639
ambulu,ID,-8.345,113.6058,73.29,90,81,3.58,1627599783
buala,SB,-8.145,159.5921,83.21,73,1,6.8,1627599784
abhar,IR,36.1468,49.218,58.69,91,94,7.27,1627599784
kanlagay,PH,5.8757,121.2915,82.2,82,64,6.8,1627599785
dunedin,NZ,-45.8742,170.5036,46.8,89,88,11.01,1627599686
alyangula,AU,-13.8483,136.4192,74.95,72,3,6.96,1627599785
padang,ID,-0.9492,100.3543,69.85,79,100,3.62,1627599693
arman,RU,59.7,150.1667,54.36,47,4,13.94,1627599785
morden,CA,49.1919,-98.1014,82.78,22,59,6.96,1627599751
saint-joseph,RE,-21.3667,55.6167,66.58,83,59,16.2,1627599786
angoche,MZ,-16.2325,39.9086,70.02,67,1,8.25,1627599786
itarema,BR,-2.9248,-39.9167,78.73,84,76,12.62,1627599786
nabire,ID,-3.3667,135.4833,78.46,83,99,1.28,1627599787
saint-pierre,RE,-21.3393,55.4781,67.68,78,75,23.02,1627599787
hailar,CN,49.2,119.7,68.16,79,25,5.12,1627599787
ladan,UA,50.5196,32.5818,66.65,95,28,7.27,1627599788
cairns,AU,-16.9167,145.7667,78.94,88,42,1.14,1627599788
maldonado,UY,-34.6667,-54.9167,46.22,81,12,5.41,1627599788
ojinaga,MX,29.5667,-104.4167,88.75,37,40,26.46,1627599789
princeton,US,25.5384,-80.4089,89.6,71,20,5.75,1627599789
odesskoye,RU,54.2111,72.9651,52.54,64,6,6.67,1627599789
salekhard,RU,66.53,66.6019,49.42,94,100,11.07,1627599790
eppelborn,DE,49.4,6.9667,59.02,83,100,2.15,1627599790
mangaratiba,BR,-22.9597,-44.0406,62.02,70,83,9.51,1627599583
tarko-sale,RU,64.9225,77.785,48.38,85,79,12.55,1627599791
rantepao,ID,-2.9701,119.8978,67.87,92,89,1.81,1627599791
bonthe,SL,7.5264,-12.505,76.82,79,79,5.53,1627599791
krasnoborsk,RU,61.5598,45.934,58.46,99,100,1.97,1627599791
norman wells,CA,65.282,-126.8329,60.35,84,100,3.33,1627599792
torrington,US,41.8007,-73.1212,71.13,94,100,3.0,1627599792
shahr-e babak,IR,30.1165,55.1186,72.73,21,93,9.75,1627599792
norfolk,US,42.1668,-71.2495,71.67,82,100,1.99,1627599511
kumano,JP,34.3442,132.5894,80.89,77,30,1.36,1627599793
ixtapa,MX,20.7,-105.2,88.23,79,17,3.0,1627599793
ulaangom,MN,49.9811,92.0667,60.46,51,98,3.47,1627599793
pareora,NZ,-44.4871,171.2132,49.71,66,93,5.21,1627599794
tazovskiy,RU,67.4667,78.7,50.41,95,11,12.88,1627599794
viloco,BO,-16.95,-67.55,38.08,85,78,3.29,1627599794
manggar,ID,-2.8833,108.2667,80.4,81,32,8.84,1627599795
arlit,NE,18.7369,7.3853,97.16,28,61,7.2,1627599795
amuntai,ID,-2.4177,115.2494,74.39,93,67,0.51,1627599796
rogers,US,36.3668,-95.5836,97.7,61,1,1.99,1627599796
newport,GB,51.5877,-2.9984,59.88,90,100,11.72,1627599796
rabaul,PG,-4.1967,152.1721,82.42,72,34,6.31,1627599797
makungu,TZ,-8.7333,35.2833,51.53,85,0,2.46,1627599797
harer,ET,9.3094,42.1258,61.41,69,99,13.49,1627599797
nizwa,OM,22.9333,57.5333,91.71,38,96,5.08,1627599798
bambous virieux,MU,-20.3428,57.7575,67.21,79,75,20.65,1627599798
kuandian,CN,40.7286,124.7847,76.24,88,58,3.22,1627599798
murray bridge,AU,-35.1167,139.2667,62.13,53,51,18.79,1627599799
hamilton,US,39.1834,-84.5333,86.99,77,58,1.99,1627599514
santander,ES,43.4647,-3.8044,66.97,94,75,1.01,1627599799
vestmannaeyjar,IS,63.4427,-20.2734,56.16,88,92,6.53,1627599799
fort frances,CA,48.5999,-93.4003,79.16,37,72,3.0,1627599648
progreso,MX,21.2833,-89.6667,85.1,74,57,16.87,1627599800
mitsamiouli,KM,-11.3847,43.2844,76.08,66,1,8.23,1627599800
svetlaya,RU,46.5389,138.3297,74.16,82,79,5.77,1627599801
mata,PT,40.683,-7.4592,61.75,80,0,4.16,1627599801
ucluelet,CA,48.9329,-125.5528,96.04,77,20,3.0,1627599612
huilong,CN,31.8111,121.655,78.98,88,48,8.68,1627599801
tuatapere,NZ,-46.1333,167.6833,45.82,79,100,3.89,1627599802
tselinnoye,RU,53.0833,85.6667,54.97,68,83,3.09,1627599802
gorom-gorom,BF,14.4439,-0.2361,86.95,52,43,11.25,1627599802
livingstonia,MW,-10.606,34.1063,55.0,76,1,3.85,1627599803
troitsko-pechorsk,RU,62.7084,56.1964,41.68,87,76,1.86,1627599803
kununurra,AU,-15.7667,128.7333,66.18,88,3,0.0,1627599803
baglung,NP,28.2719,83.5898,71.04,93,89,0.34,1627599804
mahibadhoo,MV,3.7833,72.9667,82.15,70,97,8.72,1627599722
lata,PT,40.1629,-8.3327,60.82,97,2,1.88,1627599804
chipinge,ZW,-20.1883,32.6236,51.6,60,3,3.29,1627599804
daru,PG,-9.0763,143.2092,79.25,89,74,11.7,1627599805
marawi,PH,7.9986,124.2928,71.65,75,94,3.27,1627599805
laguna,US,38.421,-121.4238,109.2,26,1,4.0,1627599805
darovskoy,RU,58.77,47.9564,59.77,99,100,5.68,1627599805
tabou,CI,4.423,-7.3528,76.12,85,86,5.93,1627599806
san policarpo,PH,12.1791,125.5072,81.3,80,100,5.48,1627599806
batagay-alyta,RU,67.8006,130.4114,58.96,39,7,1.83,1627599806
morrope,PE,-6.5417,-80.0111,75.79,73,46,14.97,1627599807
northam,GB,51.0333,-4.2167,60.3,95,100,24.72,1627599807
gayny,RU,60.3071,54.3241,55.22,99,100,3.29,1627599807
baicheng,CN,45.6167,122.8167,72.05,79,100,8.81,1627599808
kihurio,TZ,-4.4667,38.0667,63.73,90,41,3.24,1627599808
havoysund,NO,70.9963,24.6622,47.28,83,100,11.12,1627599808
sale,MA,34.0389,-6.8166,74.64,94,75,0.0,1627599809
nouadhibou,MR,20.931,-17.0347,69.3,91,95,16.8,1627599809
verkhnevilyuysk,RU,63.4453,120.3167,62.71,48,23,2.84,1627599809
finnsnes,NO,69.2296,17.9811,48.34,84,74,4.25,1627599809
hirara,JP,24.8,125.2833,83.17,86,85,8.1,1627599810
khandyga,RU,62.6667,135.6,64.22,50,7,4.88,1627599810
tulun,RU,54.5611,100.5792,54.07,80,100,6.67,1627599811
pangnirtung,CA,66.1451,-65.7125,53.82,62,13,3.38,1627599811
gravdal,NO,68.1214,13.5031,48.74,86,13,23.15,1627599811
ciro marina,IT,39.3732,17.126,83.21,47,0,6.24,1627599812
turukhansk,RU,65.8167,87.9833,56.41,91,100,7.05,1627599812
shambu,ET,9.5667,37.1,52.43,97,100,3.31,1627599812
odweyne,SO,9.4092,45.064,74.25,48,100,21.16,1627599813
ailigandi,PA,9.2333,-78.0167,81.55,84,100,5.93,1627599813
nara,JP,34.6851,135.8049,84.96,94,44,1.63,1627599681
yamada,JP,39.4667,141.95,77.81,81,33,7.94,1627599813
avera,US,33.194,-82.5271,97.72,48,4,6.73,1627599814
qinzhou,CN,21.95,108.6167,82.22,86,100,0.43,1627599814
abomsa,ET,9.9833,39.9833,70.32,74,100,3.89,1627599814
malbug,PH,9.7327,123.3402,81.59,76,92,4.68,1627599815
yashan,CN,22.1975,109.9419,78.73,92,100,1.88,1627599815
abha,SA,18.2164,42.5053,69.37,60,67,3.11,1627599815
broken hill,AU,-31.95,141.4333,52.39,38,57,20.38,1627599816
acapulco,MX,16.8634,-99.8901,87.62,70,40,10.36,1627599816
cururupu,BR,-1.8283,-44.8683,75.97,87,4,3.8,1627599705
tilichiki,RU,60.4667,166.1,55.13,47,14,8.61,1627599816
esna,EG,25.2934,32.554,87.19,17,98,7.2,1627599817
cedar city,US,37.6775,-113.0619,76.17,44,40,8.05,1627599576
makubetsu,JP,45.3714,141.8211,78.08,79,67,12.08,1627599817
