City,Country,Lat,Lng,Max Temp,Humidity,Cloudiness,Wind Speed,Date
lebu,CL,-37.6167,-73.65,51.17,89,89,4.5,1627234730
new norfolk,AU,-42.7826,147.0587,42.3,71,74,3.0,1627234731
mwense,ZM,-10.3845,28.698,62.4,43,6,6.87,1627234844
sao joao da barra,BR,-21.6403,-41.0511,77.09,60,0,14.61,1627234845
salym,RU,60.0625,71.4789,55.54,94,100,7.52,1627234845
hermanus,ZA,-34.4187,19.2345,51.8,55,100,7.9,1627234696
klaksvik,FO,62.2266,-6.589,52.72,96,100,12.55,1627234819
vaini,TO,-21.2,-175.2,68.16,94,55,0.0,1627234846
lavrentiya,RU,65.5833,-171.0,44.06,99,100,4.99,1627234846
port alfred,ZA,-33.5906,26.891,61.03,49,27,11.43,1627234741
puro,PH,12.4841,123.3827,82.8,77,94,20.65,1627234847
bredasdorp,ZA,-34.5322,20.0403,51.28,87,100,5.75,1627234604
severo-kurilsk,RU,50.6789,156.125,53.69,97,82,3.36,1627234748
lamar,US,33.6668,-95.5836,97.36,56,1,4.61,1627234847
victoria point,AU,-27.5833,153.3,50.92,76,35,1.99,1627234847
saint anthony,US,45.0205,-93.218,91.26,30,1,3.0,1627234848
giyani,ZA,-23.3025,30.7187,57.27,51,57,3.51,1627234848
yellowknife,CA,62.456,-114.3525,59.56,51,20,4.61,1627234659
marzuq,YE,14.4,46.4667,74.17,77,23,9.75,1627234849
makakilo city,US,21.3469,-158.0858,79.12,77,20,6.91,1627234849
ushuaia,AR,-54.8,-68.3,35.26,93,90,26.46,1627234849
sept-iles,CA,50.2001,-66.3821,69.26,80,75,13.0,1627234801
ajdabiya,LY,30.7554,20.2263,80.51,68,0,20.11,1627234850
grand gaube,MU,-20.0064,57.6608,72.0,60,0,10.0,1627234850
dingle,PH,10.9995,122.6711,76.84,91,73,8.41,1627234850
tilichiki,RU,60.4667,166.1,52.36,98,100,4.07,1627234850
rikitea,PF,-23.1203,-134.9692,70.34,65,97,3.91,1627234700
torbay,CA,47.6666,-52.7314,61.29,91,90,9.22,1627234730
chokurdakh,RU,70.6333,147.9167,35.15,80,2,10.04,1627234746
atuona,PF,-9.8,-139.0333,77.38,72,52,23.67,1627234692
sawtell,AU,-30.3833,153.1,43.12,89,0,2.3,1627234851
hobart,AU,-42.8794,147.3294,42.66,75,40,4.0,1627234851
avarua,CK,-21.2078,-159.775,73.45,88,90,8.05,1627234592
husavik,IS,66.0449,-17.3389,55.31,67,100,4.14,1627234730
hilo,US,19.7297,-155.09,76.8,90,90,3.44,1627234740
tongchuan,CN,35.0806,109.0897,75.4,68,31,1.45,1627234852
darnah,LY,32.767,22.6367,78.91,70,0,27.47,1627234852
maningrida,AU,-12.0667,134.2667,67.55,96,42,7.67,1627234853
honiara,SB,-9.4333,159.95,77.09,89,94,4.81,1627234853
husum,DE,54.4858,9.0524,78.01,86,49,7.07,1627234853
mar del plata,AR,-38.0023,-57.5575,57.22,59,90,7.0,1627234704
villa maria,AR,-32.4075,-63.2402,64.04,44,0,10.2,1627234854
barrow,US,71.2906,-156.7887,42.82,91,90,11.5,1627234812
ponta do sol,PT,32.6667,-17.1,79.72,74,6,5.08,1627234854
kapaa,US,22.0752,-159.319,79.12,84,75,3.0,1627234855
punta arenas,CL,-53.15,-70.9167,41.11,70,20,16.11,1627234712
bluff,NZ,-46.6,168.3333,47.8,82,100,5.91,1627234704
trindade,BR,-16.6494,-49.4889,83.95,18,0,3.4,1627234855
busselton,AU,-33.65,115.3333,58.08,66,44,19.44,1627234855
vardo,NO,70.3705,31.1107,50.2,93,75,19.57,1627234784
kaitangata,NZ,-46.2817,169.8464,48.92,63,100,4.85,1627234830
bambous virieux,MU,-20.3428,57.7575,71.85,60,40,11.5,1627234732
saskylakh,RU,71.9167,114.0833,52.66,82,40,7.96,1627234620
otjiwarongo,NA,-20.4637,16.6477,57.24,38,0,11.07,1627234856
porto da folha,BR,-9.9172,-37.2783,81.23,57,42,16.46,1627234856
victoria,HK,22.2855,114.1577,86.38,83,20,5.01,1627234645
gornopravdinsk,RU,60.05,69.9,51.67,79,80,5.53,1627234857
dikson,RU,73.5069,80.5464,38.34,89,54,13.18,1627234719
raudeberg,NO,61.9875,5.1352,74.98,86,19,10.2,1627234857
georgetown,MY,5.4112,100.3354,83.89,83,20,2.3,1627234760
ixtapa,MX,20.7,-105.2,89.22,62,1,3.44,1627234722
tasiilaq,GL,65.6145,-37.6368,46.56,87,66,5.1,1627234620
cervo,ES,43.6702,-7.4101,71.19,85,83,6.46,1627234858
souillac,MU,-20.5167,57.5167,71.98,60,40,11.5,1627234648
ilulissat,GL,69.2167,-51.1,55.42,41,40,10.36,1627234857
balykshi,KZ,47.0667,51.8667,82.4,24,0,11.18,1627234858
mweka,CD,-4.85,21.5667,77.61,30,100,2.44,1627234859
oussouye,SN,12.485,-16.5469,84.29,69,100,6.46,1627234859
nanortalik,GL,60.1432,-45.2371,45.28,74,100,12.97,1627234618
tambura,SS,5.6,27.4667,69.08,97,93,5.99,1627234860
port elizabeth,ZA,-33.918,25.5701,55.69,82,0,1.14,1627234860
prieska,ZA,-29.6641,22.7474,51.22,25,39,4.68,1627234860
lasa,IT,46.6166,10.7002,70.68,84,70,4.05,1627234861
moldava nad bodvou,SK,48.6143,20.9996,80.37,51,0,5.75,1627234861
leningradskiy,RU,69.3833,178.4167,37.62,90,100,4.63,1627234834
kathu,TH,7.9178,98.3332,87.69,77,100,12.37,1627234861
paita,PE,-5.0892,-81.1144,75.76,70,20,12.24,1627234816
saurimo,AO,-9.6608,20.3916,69.76,34,2,5.23,1627234862
mahebourg,MU,-20.4081,57.7,71.89,60,40,11.5,1627234862
albany,US,42.6001,-73.9662,82.15,74,94,6.62,1627234707
albion,US,42.2431,-84.753,86.05,37,1,9.22,1627234863
carnarvon,AU,-24.8667,113.6333,55.47,72,0,5.75,1627234723
bambanglipuro,ID,-7.95,110.2833,70.34,89,1,4.65,1627234863
butaritari,KI,3.0707,172.7902,81.95,76,18,10.31,1627234863
bubaque,GW,11.2833,-15.8333,79.34,79,98,6.49,1627234864
dudinka,RU,69.4058,86.1778,54.55,89,90,1.66,1627234864
druzhba,UA,52.0428,33.9453,65.57,74,55,2.51,1627234864
bethel,US,41.3712,-73.414,78.49,86,90,1.01,1627234865
khokhlovo,RU,59.1492,37.3998,62.62,50,84,4.83,1627234865
halifax,CA,44.6453,-63.5724,78.42,58,3,5.01,1627234865
isangel,VU,-19.55,169.2667,74.84,88,77,11.86,1627234866
vorkuta,RU,67.5,64.0,44.92,96,95,12.21,1627234866
kouqian,CN,43.6391,126.4578,72.5,77,99,4.38,1627234866
sangin,AF,32.0728,64.8359,94.64,9,2,4.94,1627234867
vanimo,PG,-2.6741,141.3028,74.73,81,100,3.4,1627234772
khatanga,RU,71.9667,102.5,50.34,83,54,7.25,1627234726
cap malheureux,MU,-19.9842,57.6142,72.09,60,0,10.0,1627234867
cape town,ZA,-33.9258,18.4232,62.28,49,0,2.3,1627234607
mataura,NZ,-46.1927,168.8643,47.48,88,100,4.59,1627234815
jamestown,US,42.097,-79.2353,83.3,63,75,4.0,1627234822
tessalit,ML,20.1986,1.0114,94.1,28,70,12.59,1627234729
upington,ZA,-28.4478,21.2561,55.78,28,0,4.61,1627234868
constitucion,CL,-35.3333,-72.4167,53.44,88,50,10.25,1627234869
vestmannaeyjar,IS,63.4427,-20.2734,54.59,82,75,27.63,1627234704
geraldton,AU,-28.7667,114.6,48.61,93,75,11.5,1627234802
faya,SA,18.3851,42.4509,66.31,71,93,4.16,1627234650
tuatapere,NZ,-46.1333,167.6833,47.82,90,100,4.7,1627234869
troitskiy,RU,57.0603,63.7481,52.9,63,4,6.64,1627234869
cherskiy,RU,68.75,161.3,41.97,72,27,7.54,1627234690
masuguru,TZ,-11.3667,38.4167,73.81,38,58,4.41,1627234870
sitka,US,57.0531,-135.33,55.29,82,90,4.61,1627234824
alofi,NU,-19.0595,-169.9187,66.09,100,17,1.14,1627234870
thompson,CA,55.7435,-97.8558,57.36,54,75,11.5,1627234742
ribeira grande,PT,38.5167,-28.7,73.8,78,40,6.91,1627234731
saldanha,ZA,-33.0117,17.9442,60.85,54,100,11.3,1627234813
rocha,UY,-34.4833,-54.3333,72.52,71,71,12.88,1627234871
careiro da varzea,BR,-3.2003,-59.8119,90.23,37,31,2.89,1627234871
praia da vitoria,PT,38.7333,-27.0667,71.85,88,75,11.97,1627234843
tuktoyaktuk,CA,69.4541,-133.0374,53.6,100,90,19.57,1627234872
castro,BR,-24.7911,-50.0119,70.07,41,2,7.7,1627234688
aban,RU,56.67,96.06,64.6,69,6,7.02,1627234872
tiksi,RU,71.6872,128.8694,48.0,81,83,7.23,1627234830
christchurch,NZ,-43.5333,172.6333,53.01,82,99,10.0,1627234805
qaanaaq,GL,77.484,-69.3632,40.23,70,88,5.48,1627234716
aguimes,ES,27.9054,-15.4461,74.66,65,20,31.07,1627234772
bonfim,BR,3.0833,-59.95,88.39,55,78,7.09,1627234873
te anau,NZ,-45.4167,167.7167,45.55,95,100,4.0,1627234873
sangmelima,CM,2.9333,11.9833,67.71,99,94,3.02,1627234873
kodiak,US,57.79,-152.4072,50.36,91,70,1.28,1627234874
verkhoyansk,RU,67.5447,133.385,55.29,70,41,2.98,1627234874
ostrovnoy,RU,68.0531,39.5131,46.45,85,95,17.69,1627234759
tonantins,BR,-2.8731,-67.8022,92.39,45,23,3.91,1627234875
humberto de campos,BR,-2.5983,-43.4611,90.25,43,56,2.01,1627234875
san juan,AR,-31.5375,-68.5364,58.51,31,0,3.91,1627234840
cidreira,BR,-30.1811,-50.2056,74.28,53,6,6.53,1627234875
san quintin,MX,30.4833,-115.95,68.58,82,100,6.4,1627234707
paamiut,GL,61.994,-49.6678,44.69,70,79,4.72,1627234876
takoradi,GH,4.8845,-1.7554,77.0,75,53,12.03,1627234876
amapa,BR,1.0,-52.0,78.67,91,49,3.15,1627234877
guanica,PR,17.9716,-66.908,91.62,72,56,5.01,1627234877
arlit,NE,18.7369,7.3853,105.82,11,2,8.21,1627234749
emerald,AU,-23.5333,148.1667,51.94,52,20,8.05,1627234877
oktyabrskiy,RU,54.4815,53.471,54.88,53,26,4.18,1627234878
port hardy,CA,50.6996,-127.4199,59.18,88,75,2.3,1627234784
belmonte,BR,-15.8631,-38.8828,75.7,66,33,11.43,1627234878
statesville,US,35.7826,-80.8873,90.39,70,75,6.91,1627234878
leh,IN,34.1667,77.5833,74.25,38,90,8.66,1627234848
upernavik,GL,72.7868,-56.1549,41.0,82,47,11.56,1627234729
gamba,GA,-2.65,10.0,72.1,85,87,6.78,1627234879
aklavik,CA,68.2191,-135.0107,55.4,76,75,17.27,1627234879
vestmanna,FO,62.1564,-7.1664,50.92,100,75,4.61,1627234879
ketchikan,US,55.3422,-131.6461,57.67,88,90,0.0,1627234795
sarany,RU,58.5,58.8833,43.68,85,38,3.18,1627234880
matagami,CA,49.7502,-77.6328,75.31,50,40,13.8,1627234880
beringovskiy,RU,63.05,179.3167,51.33,91,98,1.83,1627234880
ponezhukay,RU,44.8876,39.3855,84.85,56,52,9.53,1627234881
pevek,RU,69.7008,170.3133,34.86,90,100,9.48,1627234881
bahia blanca,AR,-38.7196,-62.2724,56.97,34,73,7.78,1627234881
salem,IN,11.65,78.1667,76.39,87,80,4.09,1627234817
monsenhor gil,BR,-5.5642,-42.6078,92.39,20,22,6.82,1627234882
vila franca do campo,PT,37.7167,-25.4333,73.81,73,46,8.32,1627234760
portland,US,45.5234,-122.6762,80.4,60,1,1.01,1627234311
sakata,JP,38.9167,139.855,73.67,85,4,9.4,1627234882
sambava,MG,-14.2667,50.1667,68.13,81,94,12.19,1627234883
kultuk,RU,51.7208,103.6956,55.94,85,3,2.24,1627234883
verkhozim,RU,52.7122,45.418,60.3,61,91,4.27,1627234883
hithadhoo,MV,-0.6,73.0833,80.87,74,85,3.24,1627234745
gizo,SB,-8.103,156.8419,79.86,80,70,5.68,1627234884
chenove,FR,47.2932,5.0046,77.02,53,0,10.36,1627234884
samarai,PG,-10.6167,150.6667,78.87,78,100,17.58,1627234884
andros town,BS,24.7,-77.7667,87.76,66,77,14.32,1627234885
pereira,CO,4.8133,-75.6961,68.76,83,75,8.05,1627234885
chuy,UY,-33.6971,-53.4616,68.05,79,61,10.36,1627234701
kapuskasing,CA,49.4169,-82.4331,77.09,57,40,8.05,1627234886
pringsewu,ID,-5.3582,104.9744,68.92,91,0,1.12,1627234886
marystown,CA,47.1666,-55.1483,61.7,73,68,3.71,1627234886
guarapari,BR,-20.6667,-40.4975,76.91,57,15,14.45,1627234887
saint-georges,GD,12.0564,-61.7485,85.68,74,20,11.5,1627234887
sorland,NO,67.667,12.6934,53.67,87,40,10.36,1627234795
lingao,CN,19.9103,109.6859,81.55,83,76,6.15,1627234887
margate,GB,51.3813,1.3862,69.91,79,85,4.0,1627234789
taywarah,AF,33.35,64.4167,66.02,22,71,5.97,1627234888
santa maria,BR,-29.6842,-53.8069,83.5,34,40,20.71,1627234888
kavieng,PG,-2.5744,150.7967,81.05,76,53,1.05,1627234596
grand-santi,GF,4.25,-54.3833,85.87,61,56,4.5,1627234888
dauphin,CA,51.1494,-100.0502,77.14,44,1,12.66,1627234750
kloulklubed,PW,7.0419,134.2556,83.37,74,100,14.18,1627234889
macae,BR,-22.3708,-41.7869,83.95,39,0,11.5,1627234889
thinadhoo,MV,0.5333,72.9333,82.45,68,56,2.08,1627234890
campina verde,BR,-19.5356,-49.4864,85.71,17,0,9.46,1627234890
pinos,MX,22.3,-101.5667,61.79,31,1,7.63,1627234890
lae,PG,-6.7221,146.9847,74.43,89,66,5.86,1627234891
lorengau,PG,-2.0226,147.2712,78.53,84,20,9.28,1627234756
caiaponia,BR,-16.9567,-51.8103,86.5,19,0,7.63,1627234891
bartica,GY,6.4,-58.6167,79.12,97,94,6.4,1627234891
naze,JP,28.3667,129.4833,77.97,88,100,18.72,1627234639
talnakh,RU,69.4865,88.3972,56.3,94,100,6.33,1627234656
merauke,ID,-8.4667,140.3333,76.44,82,99,10.47,1627234892
axim,GH,4.8699,-2.2405,77.34,74,40,10.85,1627234892
ahipara,NZ,-35.1667,173.1667,57.0,93,71,8.72,1627234779
norman wells,CA,65.282,-126.8329,62.64,48,20,8.05,1627234810
finspang,SE,58.7058,15.7674,77.65,51,66,7.38,1627234893
sabang,ID,5.8933,95.3214,83.01,78,98,10.36,1627234893
mendi,PG,-6.1761,143.6513,54.7,98,75,1.95,1627234893
beloha,MG,-25.1667,45.05,61.16,61,12,9.6,1627234894
saiki,JP,32.95,131.9,75.51,92,100,6.02,1627234894
teguldet,RU,57.3064,88.1667,65.01,76,99,1.07,1627234794
bandarbeyla,SO,9.4942,50.8122,79.86,63,71,26.44,1627234894
reoti,IN,25.85,84.3833,90.09,65,100,3.83,1627234895
wattegama,LK,6.7989,81.4808,77.54,79,87,9.93,1627234895
hirtshals,DK,57.5881,9.9592,73.22,62,100,10.6,1627234895
gunjur,GM,13.2019,-16.7339,87.87,66,40,12.66,1627234896
mittagong,AU,-34.45,150.45,48.99,78,77,17.83,1627234896
aykhal,RU,66.0,111.5,68.79,59,72,9.75,1627234896
biak,ID,-0.9131,122.8766,74.82,81,73,7.02,1627234897
college,US,64.8569,-147.8028,62.2,76,75,4.61,1627234897
balagansk,RU,54.0103,103.0544,64.74,59,99,3.29,1627234897
kalabo,ZM,-14.97,22.6814,62.01,34,0,7.09,1627234898
arraial do cabo,BR,-22.9661,-42.0278,78.76,69,0,19.57,1627234898
acapulco,MX,16.8634,-99.8901,87.62,70,40,4.61,1627234777
riberalta,BO,-10.9833,-66.1,89.8,51,20,6.91,1627234898
szob,HU,47.8192,18.8702,87.71,77,62,7.83,1627234899
hasaki,JP,35.7333,140.8333,75.6,79,0,14.23,1627234690
san cristobal,VE,7.7669,-72.225,75.38,49,100,5.28,1627234767
banska bystrica,SK,48.5,19.5,65.08,90,47,9.22,1627234899
tomigusuku,JP,26.185,127.675,80.73,94,75,11.5,1627234899
lahaina,US,20.8783,-156.6825,79.81,93,24,8.28,1627234627
ambon,ID,-3.6954,128.1814,77.14,94,40,6.91,1627234900
nador,MA,35.174,-2.9287,93.27,34,20,20.71,1627234756
poum,NC,-20.2333,164.0167,72.1,79,5,14.52,1627234900
den helder,NL,52.9599,4.7593,72.97,86,90,4.61,1627234680
vilyuysk,RU,63.7553,121.6247,62.83,58,12,5.64,1627234901
manohar thana,IN,24.24,76.8018,78.62,93,69,13.2,1627234901
riohacha,CO,11.5444,-72.9072,84.0,71,100,10.74,1627234901
korla,CN,41.7597,86.1469,88.99,17,0,12.37,1627234838
ancud,CL,-41.8697,-73.8203,44.13,61,17,10.31,1627234902
tocopilla,CL,-22.092,-70.1979,64.45,70,98,7.58,1627234902
mount gambier,AU,-37.8333,140.7667,51.71,93,90,16.11,1627234903
bam,IR,29.106,58.357,94.01,6,0,10.78,1627234903
tabora,TZ,-5.0167,32.8,71.38,40,20,5.75,1627234903
ostersund,SE,63.1792,14.6357,73.85,43,75,9.22,1627234837
palmer,US,42.1584,-72.3287,72.99,82,90,5.01,1627234904
fort myers beach,US,26.452,-81.9481,94.01,62,75,3.0,1627234904
glenluce,GB,54.8798,-4.8084,70.29,74,17,5.1,1627234904
lysva,RU,58.1086,57.8053,53.2,68,96,3.2,1627234904
chepareria,KE,1.3077,35.2039,61.2,86,96,2.66,1627234905
vincennes,FR,48.85,2.4333,72.93,81,75,2.3,1627234905
mount isa,AU,-20.7333,139.5,46.17,46,4,0.0,1627234714
guozhen,CN,34.3659,107.359,76.62,83,70,4.92,1627234905
launceston,AU,-41.45,147.1667,44.8,88,75,3.0,1627234906
chingirlau,KZ,51.095,54.0814,71.71,36,59,12.64,1627234906
nikolskoye,RU,59.7035,30.7861,71.49,64,51,2.42,1627234906
valparaiso,CL,-33.0393,-71.6273,60.44,69,75,11.5,1627234691
kahului,US,20.8947,-156.47,79.84,88,40,18.41,1627234747
starovelichkovskaya,RU,45.4288,38.7326,85.15,43,40,11.59,1627234907
puerto ayora,EC,-0.7393,-90.3518,78.76,86,38,5.99,1627234737
luanda,AO,-8.8368,13.2343,71.19,83,3,10.4,1627234816
taraz,KZ,42.9,71.3667,81.01,28,0,6.71,1627234907
general roca,AR,-39.0333,-67.5833,52.2,43,100,11.23,1627234894
kachiry,KZ,53.0675,76.1036,69.15,80,76,8.41,1627234908
namibe,AO,-15.1961,12.1522,68.05,67,0,3.8,1627234908
gelemso,ET,8.8167,40.5167,59.9,83,99,1.97,1627234909
nouadhibou,MR,20.931,-17.0347,76.98,73,0,17.27,1627234909
caconda,AO,-13.7333,15.0667,63.32,25,0,3.06,1627234909
hille,DE,52.3333,8.75,79.65,72,72,4.16,1627234909
turiacu,BR,-1.6633,-45.3717,82.18,66,77,5.55,1627234910
mulege,MX,26.8833,-111.9833,91.72,41,18,8.39,1627234910
griffith,US,41.5284,-87.4237,91.04,50,40,3.0,1627234910
eggenfelden,DE,48.4054,12.7626,76.69,79,91,6.67,1627234911
lompoc,US,34.6391,-120.4579,75.69,82,90,0.0,1627234741
buy,RU,58.4786,41.53,61.03,55,99,5.08,1627234911
avera,US,33.194,-82.5271,90.72,50,93,3.49,1627234911
faanui,PF,-16.4833,-151.75,77.77,66,2,13.11,1627234912
ialibu,PG,-6.2821,143.9935,55.06,98,76,2.59,1627234912
kalmunai,LK,7.4167,81.8167,81.82,74,100,8.25,1627234912
tautira,PF,-17.7333,-149.15,75.22,67,2,10.07,1627234913
rio gallegos,AR,-51.6226,-69.2181,39.25,70,40,19.57,1627234913
saint-philippe,RE,-21.3585,55.7679,69.39,77,37,11.39,1627234844
sawakin,SD,19.1059,37.3321,90.75,51,19,9.1,1627234911
bossangoa,CF,6.4926,17.4552,78.01,68,98,1.59,1627234913
wasilla,US,61.5814,-149.4394,59.85,77,90,0.0,1627234756
tsuruoka,JP,38.7217,139.8217,72.07,88,4,7.58,1627234914
waingapu,ID,-9.6567,120.2641,71.62,74,70,5.03,1627234765
rodez,FR,44.5,2.5833,71.28,64,75,9.22,1627234914
ranong,TH,9.9658,98.6348,78.53,88,100,9.48,1627234915
swift current,CA,50.2834,-107.8014,79.61,27,1,12.66,1627234915
lata,PT,40.1629,-8.3327,76.05,76,83,8.99,1627234661
sola,VU,-13.8833,167.55,79.54,82,44,10.96,1627234741
camopi,GF,3.1655,-52.3158,83.59,75,52,3.96,1627234915
sibu,MY,2.3,111.8167,79.11,94,40,0.0,1627234916
prince rupert,CA,54.3161,-130.3201,57.29,91,90,2.3,1627234882
oranjemund,NA,-28.55,16.4333,64.9,30,100,3.22,1627234783
miraflores,MX,19.2167,-98.8083,71.02,48,6,4.72,1627234916
kruisfontein,ZA,-34.0033,24.7314,53.71,45,59,3.13,1627234733
acari,PE,-15.4311,-74.6158,71.69,56,62,10.09,1627234917
khasan,RU,42.4308,130.6434,73.78,96,77,4.27,1627234917
esperance,AU,-33.8667,121.9,53.44,83,4,17.49,1627234917
preobrazheniye,RU,42.9019,133.9064,71.29,90,36,4.23,1627234742
henties bay,NA,-22.116,14.2845,70.36,34,1,9.31,1627234644
vilhena,BR,-12.7406,-60.1458,86.22,39,0,12.66,1627234789
plettenberg bay,ZA,-34.0527,23.3716,59.14,50,77,3.65,1627234764
masindi,UG,1.6744,31.715,70.02,53,98,5.23,1627234918
orangeburg,US,33.4918,-80.8557,89.46,62,1,3.44,1627234918
egvekinot,RU,66.3167,-179.1667,44.28,91,100,1.66,1627234726
port blair,IN,11.6667,92.75,82.22,86,100,17.25,1627234919
provideniya,RU,64.3833,-173.3,46.71,99,100,6.67,1627234682
lakatoro,VU,-16.0999,167.4164,77.67,86,58,3.91,1627234919
reconquista,AR,-29.15,-59.65,80.37,44,3,7.16,1627234812
palimbang,PH,6.2106,124.1894,79.09,82,51,3.31,1627234920
adre,TD,13.4667,22.2,72.34,93,82,12.71,1627234848
panaba,MX,21.2833,-88.2667,95.77,38,77,13.85,1627234920
broken hill,AU,-31.95,141.4333,49.71,66,45,12.66,1627234920
east london,ZA,-33.0153,27.9116,59.94,72,0,6.91,1627234921
broome,US,42.2506,-75.833,85.46,73,40,1.99,1627234921
katsuura,JP,35.1333,140.3,81.1,86,8,11.43,1627234699
pitimbu,BR,-7.4706,-34.8086,77.59,69,8,13.87,1627234921
longhua,CN,23.6137,114.1919,82.35,82,93,1.21,1627234922
shizunai,JP,42.3339,142.3669,67.57,93,36,5.82,1627234922
fairbanks,US,64.8378,-147.7164,62.22,76,90,0.0,1627234777
terrace,CA,54.5163,-128.6035,58.91,94,90,6.91,1627234922
camacha,PT,33.0833,-16.3333,74.16,83,40,12.66,1627234923
kajaani,FI,64.2273,27.7285,69.85,56,0,10.36,1627234923
pafos,CY,34.7667,32.4167,83.23,78,0,11.5,1627234923
malakal,SS,9.5334,31.6605,69.96,98,100,7.14,1627234924
asau,RO,46.4333,26.4,74.32,62,69,1.45,1627234924
shenjiamen,CN,29.9576,122.298,78.12,89,100,34.78,1627234924
barauli,IN,26.4,84.5833,87.46,71,100,7.76,1627234925
bonavista,CA,48.6499,-53.1147,62.6,82,45,7.54,1627234628
sazonovo,RU,59.0919,35.2268,60.01,64,88,3.44,1627234925
sao filipe,CV,14.8961,-24.4956,74.25,73,56,7.7,1627234925
dublin,US,37.7021,-121.9358,82.24,53,1,4.61,1627234830
spas-klepiki,RU,55.1347,40.1767,60.84,57,77,1.03,1627234926
la ronge,CA,55.1001,-105.2842,64.65,59,75,8.05,1627234794
soe,ID,-9.8607,124.284,59.72,69,44,4.54,1627234926
bonthe,SL,7.5264,-12.505,78.6,77,90,8.79,1627234927
dembi dolo,ET,8.5333,34.8,55.53,99,100,3.58,1627234927
senanga,ZM,-16.1167,23.2667,62.15,38,0,7.96,1627234927
mount darwin,ZW,-16.7725,31.5838,52.11,74,11,7.81,1627234928
jalu,LY,29.0331,21.5482,89.51,22,0,7.74,1627234702
fortuna,US,40.5982,-124.1573,57.97,96,90,0.0,1627234715
udachnyy,RU,66.4167,112.4,71.83,55,42,8.99,1627234672
sobolevo,RU,54.4299,31.8996,67.6,61,40,4.23,1627234653
coari,BR,-4.085,-63.1414,94.96,32,73,4.0,1627234928
sindgi,IN,16.9167,76.2333,75.15,84,77,17.29,1627234929
monkey bay,MW,-14.0728,34.9201,66.42,63,74,18.95,1627234929
pangnirtung,CA,66.1451,-65.7125,55.4,82,90,4.61,1627234929
iqaluit,CA,63.7506,-68.5145,46.13,93,90,4.0,1627234930
great falls,US,47.5002,-111.3008,89.92,17,1,1.99,1627234700
alice town,BS,25.7167,-79.3,83.68,69,61,8.61,1627234930
ternate,ID,0.8,127.4,80.73,80,100,7.29,1627234930
flinders,AU,-34.5833,150.8552,56.17,62,53,20.0,1627234931
soyo,AO,-6.1349,12.3689,72.72,86,57,7.27,1627234931
pisco,PE,-13.7,-76.2167,66.02,72,75,6.91,1627234757
madimba,TZ,-10.4,40.3333,72.72,73,20,11.5,1627234931
san policarpo,PH,12.1791,125.5072,81.57,77,60,10.27,1627234659
alyangula,AU,-13.8483,136.4192,58.87,94,85,2.3,1627234932
bad ems,DE,50.3333,7.7167,76.23,80,57,3.83,1627234932
sokoni,TZ,-6.4333,39.55,78.66,71,2,20.4,1627234932
clyde river,CA,70.4692,-68.5914,35.83,100,90,12.66,1627234712
the valley,AI,18.217,-63.0578,87.66,74,20,17.27,1627234933
felanitx,ES,39.4696,3.1483,83.95,63,52,8.9,1627234933
de aar,ZA,-30.6497,24.0123,44.67,27,15,5.53,1627234933
meyzieu,FR,45.7667,5.0,80.55,44,0,5.75,1627234934
kunming,CN,25.0389,102.7183,58.93,94,0,2.24,1627234934
champua,IN,22.0833,85.6667,79.41,85,100,5.93,1627234934
bac lieu,VN,9.285,105.7244,78.69,85,77,7.67,1627234934
smidovich,RU,48.6,133.8167,70.07,87,100,4.79,1627234935
bathsheba,BB,13.2167,-59.5167,88.41,74,75,18.41,1627234831
genhe,CN,50.7833,121.5167,52.41,97,10,1.79,1627234935
hamilton,US,39.1834,-84.5333,91.0,69,40,1.01,1627234698
suoyarvi,RU,62.0833,32.35,64.15,63,94,3.94,1627234935
airai,TL,-8.9266,125.4092,55.54,51,40,3.06,1627234936
galle,LK,6.0367,80.217,78.35,86,73,12.62,1627234936
chipinge,ZW,-20.1883,32.6236,51.57,54,65,2.06,1627234936
itoman,JP,26.1247,127.6694,80.98,94,75,11.5,1627234937
acajutla,SV,13.5928,-89.8275,91.74,58,93,9.1,1627234937
benjamin aceval,PY,-24.9667,-57.5667,89.74,23,10,12.75,1627234937
berlevag,NO,70.8578,29.0864,46.4,83,100,18.75,1627234811
bairiki,KI,1.3292,172.9752,80.6,83,75,8.05,1627234938
lagoa,PT,39.05,-27.9833,69.49,82,100,12.8,1627234938
luwuk,ID,-0.9516,122.7875,75.56,82,76,5.35,1627234938
port lincoln,AU,-34.7333,135.8667,55.24,86,41,17.36,1627234939
mayo,US,38.8876,-76.5119,92.21,70,1,4.0,1627234939
kundiawa,PG,-6.0167,144.9667,62.01,98,100,1.86,1627234939
la pila,MX,22.05,-100.8667,69.48,39,0,5.44,1627234940
weslaco,US,26.1595,-97.9908,93.2,49,1,8.05,1627234940
varkkallai,IN,8.7341,76.7067,80.38,91,93,17.02,1627234940
latur,IN,18.4,76.5833,74.26,82,39,15.12,1627234940
ciudad bolivar,VE,8.1222,-63.5497,84.51,67,91,7.02,1627234941
roald,NO,62.5833,6.1333,79.16,82,24,11.5,1627234941
sorochinsk,RU,52.4338,53.1583,62.19,40,5,9.55,1627234941
hami,CN,42.8,93.45,88.23,19,0,11.65,1627234666
panguna,PG,-6.3164,155.4848,67.42,93,82,1.39,1627234942
buala,SB,-8.145,159.5921,79.21,84,69,7.09,1627234878
santiago del estero,AR,-27.7951,-64.2615,69.8,24,0,10.76,1627234824
ascension,US,30.2169,-90.9001,94.1,62,1,4.61,1627234942
los llanos de aridane,ES,28.6585,-17.9182,73.15,82,20,16.11,1627234943
coihaique,CL,-45.5752,-72.0662,44.55,49,40,4.61,1627234691
china,MX,25.7,-99.2333,95.85,29,30,12.1,1627234943
villarrica,PY,-25.75,-56.4333,91.8,24,53,11.07,1627234943
capoterra,IT,39.1763,8.9718,87.51,69,0,8.05,1627234944
yumen,CN,40.2833,97.2,80.67,26,97,11.18,1627234676
remedios,CU,22.4947,-79.5458,90.52,66,46,9.08,1627234944
nyagan,RU,62.1406,65.3936,48.11,76,12,4.9,1627234944
nhulunbuy,AU,-12.2333,136.7667,68.61,88,47,2.3,1627234945
carbonia,IT,39.1672,8.5222,86.95,46,100,5.3,1627234945
ust-kuyga,RU,70.0167,135.6,51.06,75,32,3.15,1627234780
popondetta,PG,-8.7537,148.2534,73.18,91,87,2.08,1627234945
kalulushi,ZM,-12.8378,28.0919,42.76,44,0,5.59,1627234946
olavarria,AR,-36.8927,-60.3225,58.53,54,44,12.75,1627234878
salalah,OM,17.0151,54.0924,78.89,94,75,6.91,1627234851
atotonilco el grande,MX,20.2833,-98.6667,72.97,46,2,9.28,1627234946
mogadouro,PT,41.3403,-6.7119,74.21,47,64,9.71,1627234946
methoni,GR,36.8197,21.7049,82.26,74,0,10.96,1627234947
malpe,IN,13.35,74.7167,78.1,89,48,13.47,1627234798
sovetskiy,RU,61.3614,63.5842,51.4,69,48,4.21,1627234947
flin flon,CA,54.7682,-101.865,58.84,100,90,4.61,1627234948
taltal,CL,-25.4,-70.4833,61.18,66,7,6.69,1627234852
svetlyy,RU,54.675,20.1347,78.85,70,64,9.98,1627234948
kavaratti,IN,10.5669,72.642,81.55,77,100,22.39,1627234948
bengkulu,ID,-3.8004,102.2655,75.49,90,2,4.83,1627234949
vizinga,RU,61.0749,50.1031,55.38,66,98,5.21,1627234949
pokrovsk,UA,48.282,37.1758,73.06,55,79,8.03,1627234949
rosetta,EG,31.4044,30.4164,82.22,71,0,13.82,1627234950
vallenar,CL,-28.5708,-70.7581,67.86,29,0,5.73,1627234950
carolina,PR,18.3808,-65.9574,87.73,81,75,5.75,1627234950
cabedelo,BR,-6.9811,-34.8339,77.67,70,8,15.48,1627234792
penzance,GB,50.1186,-5.5371,68.77,83,86,10.07,1627234951
chichihualco,MX,17.6833,-99.65,79.0,54,40,3.24,1627234951
sarakhs,IR,36.5449,61.1577,95.14,18,0,9.22,1627234720
pacora,PA,9.0833,-79.2833,84.09,89,90,8.05,1627234951
praya,CV,14.9215,-23.5087,81.14,57,20,16.11,1627234737
brae,GB,60.3964,-1.353,60.71,74,64,3.83,1627234952
veinticinco de mayo,AR,-35.4323,-60.1727,59.05,80,45,13.0,1627234952
labuhan,ID,-6.8844,112.2051,74.55,81,11,4.83,1627234801
emba,KZ,48.8264,58.1442,76.42,36,0,10.49,1627234952
najran,SA,17.4924,44.1277,92.05,24,100,8.55,1627234953
rapid valley,US,44.0625,-103.1463,96.01,26,1,1.99,1627234772
tabou,CI,4.423,-7.3528,78.13,70,88,7.25,1627234953
weiser,US,44.251,-116.9693,92.32,21,0,0.89,1627234855
muktsar,IN,30.4833,74.5167,96.66,44,76,9.06,1627234954
lima,PE,-12.0432,-77.0282,64.65,72,90,5.75,1627234800
enumclaw,US,47.2043,-121.9915,77.83,61,1,3.0,1627234833
omsukchan,RU,62.5333,155.8,49.14,98,100,7.09,1627234954
maiduguri,NG,11.8464,13.1603,85.01,55,100,10.83,1627234866
mahibadhoo,MV,3.7833,72.9667,82.15,77,100,19.98,1627234955
mareeba,AU,-17.0,145.4333,63.32,78,50,2.01,1627234955
inirida,CO,3.8653,-67.9239,81.5,74,100,3.22,1627234955
novouzensk,RU,50.4592,48.1431,68.31,46,18,9.15,1627234955
poya,NC,-21.35,165.15,65.34,89,14,0.72,1627234956
asfi,MA,32.2994,-9.2372,73.15,67,0,20.54,1627234868
anloga,GH,5.7947,0.8973,79.02,76,16,15.46,1627234956
aquiraz,BR,-3.9014,-38.3911,86.22,55,2,12.59,1627234956
young,UY,-32.6833,-57.6333,68.79,73,31,10.83,1627234817
bereda,ES,43.2686,-7.5406,72.41,80,64,5.99,1627234957
notre-dame-du-lac,CA,47.6136,-68.7964,67.44,98,100,12.33,1627234957
vostok,RU,46.4856,135.8833,65.73,89,88,3.62,1627234783
bolshaya glushitsa,RU,50.2406,43.5908,67.03,51,9,8.81,1627234958
muros,ES,42.7762,-9.0603,80.17,72,46,11.68,1627234958
terra santa,BR,-2.1042,-56.4869,96.03,30,86,5.59,1627234958
emilio carranza,MX,19.9711,-96.6114,85.1,66,8,6.33,1627234959
consuegra,ES,39.4625,-3.608,86.83,23,23,11.41,1627234959
chumikan,RU,54.7183,135.315,62.47,92,28,11.32,1627234959
mehamn,NO,71.0357,27.8492,46.58,81,75,16.11,1627234725
urucara,BR,-2.5364,-57.76,95.32,32,59,5.17,1627234960
port keats,AU,-14.25,129.55,68.81,78,54,5.03,1627234764
quang ngai,VN,15.1167,108.8,81.99,67,99,4.41,1627234735
olinda,BR,-8.0089,-34.8553,76.73,69,75,13.8,1627234960
pouebo,NC,-20.4,164.5667,66.42,74,8,4.54,1627234960
cerrito,CO,6.8432,-72.694,51.19,83,100,0.74,1627234961
saint george,US,37.1041,-113.5841,90.43,47,10,3.0,1627234818
srivardhan,IN,18.0333,73.0167,80.15,88,100,17.56,1627234961
areka,ET,7.0667,37.7,55.53,96,100,2.55,1627234961
guerrero negro,MX,27.9769,-114.0611,76.05,61,60,9.53,1627234747
mancio lima,BR,-7.6142,-72.8958,86.07,54,75,6.91,1627234962
spirit river,CA,55.7833,-118.8361,66.74,39,92,6.13,1627234962
nioro,GM,13.35,-15.75,85.01,58,100,9.13,1627234962
codrington,AU,-38.2667,141.9667,49.68,92,98,15.17,1627234801
colares,PT,38.7992,-9.4469,74.88,72,75,10.0,1627234963
puerto escondido,MX,15.85,-97.0667,88.63,66,40,6.91,1627234958
grindavik,IS,63.8424,-22.4338,52.27,87,75,34.52,1627234963
luderitz,NA,-26.6481,15.1594,66.45,25,74,4.34,1627234964
laguna,US,38.421,-121.4238,100.44,48,1,3.44,1627234820
rudnichnyy,RU,59.617,52.4703,50.65,73,93,5.41,1627234964
nishihara,JP,26.1842,127.7558,80.26,94,75,11.5,1627234685
izhmorskiy,RU,56.194,86.6414,65.86,93,100,5.73,1627234964
balikpapan,ID,-1.2675,116.8289,76.86,81,31,7.85,1627234756
puerto baquerizo moreno,EC,-0.9,-89.6,76.19,73,20,11.5,1627234955
muli,MV,2.9167,73.5667,82.2,75,86,12.41,1627234965
san pedro,PH,14.35,121.0167,81.63,86,75,6.91,1627234965
hofn,IS,64.2539,-15.2082,52.14,88,97,15.17,1627234966
chipiona,ES,36.7366,-6.437,84.67,73,0,21.85,1627234966
santander,ES,43.4647,-3.8044,69.82,78,75,5.99,1627234966
beeville,US,28.4008,-97.7483,92.75,66,1,8.05,1627234967
thenzawl,IN,23.3167,92.75,69.37,99,97,0.89,1627234967
bani,DO,18.2833,-70.3333,89.04,65,36,10.6,1627234967
shangzhi,CN,45.2167,127.9667,70.29,79,88,2.59,1627234968
kudahuvadhoo,MV,2.6708,72.8944,81.23,78,93,13.67,1627234968
taoudenni,ML,22.6783,-3.9836,113.99,6,16,10.8,1627234760
parabel,RU,58.6978,81.4825,66.58,74,18,7.49,1627234968
muriwai beach,NZ,-36.8167,174.45,56.86,96,100,19.6,1627234969
halol,IN,22.5,73.4667,75.56,98,100,9.13,1627234969
manjeri,IN,11.1167,76.1167,75.88,88,75,2.3,1627234969
yerbogachen,RU,61.2767,108.0108,62.56,66,19,1.19,1627234970
metro,ID,-5.1131,105.3067,71.17,91,1,3.69,1627234970
hambantota,LK,6.1241,81.1185,80.02,80,82,17.56,1627234970
orlik,RU,52.5178,99.825,53.17,80,46,1.86,1627234971
longyearbyen,SJ,78.2186,15.6401,44.44,87,75,10.36,1627234971
debno,PL,52.739,14.698,76.14,73,84,7.45,1627234971
okhotsk,RU,59.3833,143.3,55.54,98,100,5.79,1627234806
kailua,US,21.4022,-157.7394,80.58,74,40,12.66,1627234831
tazovskiy,RU,67.4667,78.7,53.67,81,99,8.46,1627234972
qarqin,AF,37.4185,66.0436,97.83,12,0,11.27,1627234972
santa isabel do rio negro,BR,-0.4139,-65.0192,88.65,59,67,1.45,1627234972
san patricio,US,28.017,-97.5169,93.29,44,4,10.49,1627234973
camana,PE,-16.6228,-72.7111,63.73,76,55,9.04,1627234973
ankpa,NG,7.3706,7.6253,71.83,94,92,5.48,1627234973
carballo,ES,43.213,-8.691,75.58,83,71,5.06,1627234763
sao miguel do araguaia,BR,-13.275,-50.1628,92.1,22,1,6.87,1627234974
mlonggo,ID,-6.5333,110.7,75.36,70,2,6.55,1627234780
gat,IL,31.61,34.7642,83.8,75,0,11.56,1627234974
sile,TR,41.1754,29.6133,77.58,63,58,5.99,1627234974
kuvshinovo,RU,57.0295,34.1725,62.94,66,100,2.64,1627234975
ler,SS,8.3018,30.1418,70.63,97,100,7.34,1627234975
strezhevoy,RU,60.7333,77.5889,58.98,98,99,3.56,1627234808
kaduqli,SD,11.0167,29.7167,75.67,80,100,5.61,1627234975
ghanzi,BW,-21.5667,21.7833,53.24,48,0,9.78,1627234976
changli,CN,39.7042,119.1506,74.05,92,54,3.02,1627234976
waipawa,NZ,-41.4122,175.5153,53.46,78,100,12.41,1627234976
praia,CV,14.9215,-23.5087,81.14,57,20,16.11,1627234859
karlskrona,SE,56.1616,15.5866,73.85,77,100,13.6,1627234977
padang,ID,-0.9492,100.3543,78.21,85,30,3.27,1627234977
sur,OM,22.5667,59.5289,93.7,53,42,9.86,1627234777
olafsvik,IS,64.8945,-23.7142,50.07,85,69,27.78,1627234776
bemidji,US,47.4736,-94.8803,87.15,26,1,18.41,1627234715
atkinson,US,42.8384,-71.147,71.83,88,90,1.99,1627234978
brazzaville,CG,-4.2658,15.2832,79.16,65,32,4.61,1627234978
rumoi,JP,43.9344,141.6428,70.66,92,18,5.23,1627234978
lindi,TZ,-10.0,39.7167,72.84,63,35,5.5,1627234979
salta,AR,-24.7859,-65.4117,85.57,17,0,4.0,1627234883
mogadishu,SO,2.0371,45.3438,76.1,79,36,21.85,1627234687
tisul,RU,55.7611,88.3122,66.0,95,100,3.13,1627234979
obera,AR,-27.4871,-55.1199,84.74,29,80,7.67,1627234879
tupik,RU,54.4253,119.9327,56.03,94,100,5.44,1627234980
bunia,CD,1.5667,30.25,67.91,77,99,2.55,1627234980
saint-joseph,RE,-21.3667,55.6167,68.38,75,20,11.83,1627234863
yar-sale,RU,66.8333,70.8333,49.73,77,56,19.24,1627234981
khani,GE,41.9563,42.9566,65.77,97,56,2.33,1627234981
haines junction,CA,60.7522,-137.5108,53.55,66,97,3.44,1627234762
talagang,PK,32.9297,72.4158,98.01,36,9,7.67,1627234981
korfovskiy,RU,48.2183,135.0564,71.06,90,99,2.28,1627234982
sistranda,NO,63.7256,8.834,57.16,87,55,9.13,1627234950
auki,SB,-8.7676,160.7034,76.91,88,94,4.43,1627234982
ballina,AU,-28.8667,153.5667,42.98,81,0,3.44,1627234982
komsomolskiy,UZ,40.4272,71.7189,86.72,28,1,4.61,1627234983
pobe,BJ,6.9801,2.6649,76.68,71,81,8.63,1627234983
mehtar lam,AF,34.6714,70.2094,93.74,38,0,2.48,1627234983
amuntai,ID,-2.4177,115.2494,71.31,92,4,1.16,1627234984
ituporanga,BR,-27.4144,-49.6025,76.01,44,64,2.59,1627234984
floro,NO,61.5996,5.0328,75.9,64,20,14.97,1627234984
nizwa,OM,22.9333,57.5333,88.45,52,73,7.09,1627234984
ulaanbaatar,MN,47.9077,106.8832,60.93,77,40,2.24,1627234827
alihe,CN,50.5667,123.7167,57.2,96,11,3.27,1627234985
maniitsoq,GL,65.4167,-52.9,45.61,72,97,8.66,1627234985
itarema,BR,-2.9248,-39.9167,86.34,52,47,18.19,1627234985
vila velha,BR,-20.3297,-40.2925,76.96,56,40,9.22,1627234986
dobryatino,RU,55.5055,41.3195,61.88,55,67,4.27,1627234986
robertsport,LR,6.7533,-11.3686,78.91,73,70,10.33,1627234986
cayenne,GF,4.9333,-52.3333,84.09,79,40,1.99,1627234810
prachuap khiri khan,TH,12.2167,99.75,80.69,81,100,13.49,1627234987
arandis,NA,-22.4167,14.9667,69.1,19,3,3.69,1627234987
belen,TR,36.4891,36.2233,77.14,65,0,18.41,1627234988
back mountain,US,41.3359,-75.9963,82.17,80,72,5.03,1627234858
dhanaula,IN,30.2833,75.5833,91.67,54,92,7.34,1627234988
servia,GR,40.1797,21.9944,82.71,26,0,3.44,1627234988
rangapara,IN,26.8167,92.65,78.17,97,100,1.72,1627234989
shingu,JP,33.7333,135.9833,75.9,80,0,5.08,1627234989
narsaq,GL,60.9167,-46.05,57.42,48,100,4.34,1627234989
